id,image_url,latitude,longitude,place_name,category
1,https://drive.google.com/uc?export=download&id=1BukT6jpTHXF3CTbw4YOSK4IM33oldM_p,-21.97993326788108,-47.88319772105497,agencia_inovacao.jpg,Norte
2,https://drive.google.com/uc?export=download&id=1F7J9GJEWO4CdvuZ8Tj2OBeoaf_XyiQqi,-21.97869958521288,-47.880712654398025,atnove_back.jpg,Norte
3,https://drive.google.com/uc?export=download&id=1aroSHet-fagHoW2znALWx1dDNTlkPcHN,-21.979357467726757,-47.880975510884696,atnove_front.jpg,Norte
4,https://drive.google.com/uc?export=download&id=1aVycq7VGFd5Lh8AzLq8NosKQAIuz3cOi,-21.981110346029737,-47.88185278083292,baja.jpg,Norte
5,https://drive.google.com/uc?export=download&id=1QHSHzjAXrVzawLzmVRzVuob4fQI3MQ6I,-21.978471439579366,-47.881782566918794,cantina_use.jpg,Norte
6,https://drive.google.com/uc?export=download&id=1RLkM6MEfs0Ne8g_dwrSEEYMUi3eG2JO8,-21.98009138638262,-47.880262926718196,dc_front1.jpg,Norte
7,https://drive.google.com/uc?export=download&id=1SxzBeu8uDok_6NhHqszMpmoF-CfUzknB,-21.980018012493804,-47.88018380155152,dc_front2.jpg,Norte
8,https://drive.google.com/uc?export=download&id=16PZsE6SZq1zccMRpIOdHxOokCoXRxpPl,-21.979699643993126,-47.88043190588803,dc_in1.jpg,Norte
9,https://drive.google.com/uc?export=download&id=170p4mJ7oGIDTosOiHAxrmku0nNZs_r3J,-21.979799134225782,-47.88067598691118,dc_in2.jpg,Norte
10,https://drive.google.com/uc?export=download&id=1_EahK6PS0CUgEUqreMfQIgk-jRXBkNkz,-21.979137522854774,-47.87885610808692,dc_nfp.jpg,Norte
11,https://drive.google.com/uc?export=download&id=1ZPv0lUxDAQ2rSkexja9IjIh9GUizz5Ym,-21.98098999485963,-47.880982857072745,dema.jpg,Norte
12,https://drive.google.com/uc?export=download&id=1y8JAF9S9xkDBFgFao274YgmiTgd2B6ja,-21.97892308825599,-47.87755499395167,foto.jpg,Norte
13,https://drive.google.com/uc?export=download&id=1rJjV3VQ8pnIGNeN2DsYO_RllnXH1P8SF,-21.981018932928222,-47.880149555894704,lamav.jpg,Norte
14,https://drive.google.com/uc?export=download&id=17gQDzc1JNn5AmROPlVmOTyA0kGunI_Bj,-21.979563426772295,-47.879358167703785,nfprof.jpg,Norte
15,https://drive.google.com/uc?export=download&id=1UU7BqgewPGVxCG3qv0l737U1TZExq8if,-21.981188368766944,-47.87862027694527,nuleen.jpg,Norte
16,https://drive.google.com/uc?export=download&id=1ol9AiFa3DkK9XbvaE07TAELVHN_MDNWi,-21.979809192671237,-47.879119167826545,observatorio.jpg,Norte
17,https://drive.google.com/uc?export=download&id=1Gp_7QYMx3Qfl_y5zUHcA6ELf_kusCVAz,-21.979145759108444,-47.87734684590252,petrobras_front.jpg,Norte
18,https://drive.google.com/uc?export=download&id=1z0YPR6MOPAxuyXJIE0g891c51ZPzDoJx,-21.9790810901675,-47.877216758763815,petrobras_obs.jpg,Norte
19,https://drive.google.com/uc?export=download&id=1O1KOtlYIRKidbmeDuy7gVqKyrOauEbis,-21.979385158299152,-47.87760098520958,petrobras.jpg,Norte
20,https://drive.google.com/uc?export=download&id=1udzUyVej38wJrj_xvc6LGFrlEZB9nssy,-21.980866007294598,-47.88280972613572,praca_fai.jpg,Norte
21,https://drive.google.com/uc?export=download&id=1YERJQw4fnSjsFzHdX335A5cOnNbeIRvp,-21.978311946163185,-47.88141400418893,pracinha_use.jpg,Norte
22,https://drive.google.com/uc?export=download&id=1tgZpxDyGGFVMMxmwUx8ZGoVqke8sy-Im,-21.981168055656507,-47.88288506177465,radio.jpg,Norte
23,https://drive.google.com/uc?export=download&id=19vgV1IibmjnvcH6SDsNbPK5ZfXP2ZfCG,-21.978894546383007,-47.87655313510346,rotatoria.jpg,Norte
24,https://drive.google.com/uc?export=download&id=1xqWN30pT2pc3owVAZDVVHLjsJl3RBFA-,-21.97838006451277,-47.88267146069536,use_front.jpg,Norte
25,https://drive.google.com/uc?export=download&id=11bA-X4ugMTY2Mf4RpxVdY-dWMEhAd5dK,-21.978393744551045,-47.88248370606218,use_ponto.jpg,Norte
26,https://drive.google.com/uc?export=download&id=1Enwfk8T9o0kLkLRtTm_taGrhS1rUL5xY,-21.981283934056705,-47.882603734910816,vila.jpg,Norte
27,https://drive.google.com/uc?export=download&id=1wnCx15T5WrKrdFXIEImSeRAb0crs4VFF,-21.98820827582579,-47.879572372617496,atoito.jpg,Sul
28,https://drive.google.com/uc?export=download&id=1R0Ltp9Q__kPA-bnnhbJDtAzs9wDI20KE,-21.98856558961281,-47.880990167154266,descida_sul.jpg,Sul
29,https://drive.google.com/uc?export=download&id=1dzopyKlzgTelOx1sG_9LHPTbRAWcShrb,-21.987698799057625,-47.88068394052132,ginasio.jpg,Sul
30,https://drive.google.com/uc?export=download&id=1jgIaUPBXIjbhPUMNz4tZ-etC-g9F5IPW,-21.985982678248067,-47.8820793597755,manjolinho.jpg,Sul
31,https://drive.google.com/uc?export=download&id=1gE4OtPxBnbpi6ZylMnxYPtnQJZl3kymH,-21.987855417812725,-47.88086574808401,palquinho.jpg,Sul
32,https://drive.google.com/uc?export=download&id=1u_J2_i9jSUf0sgJm89kxYcrtpSGKyK-d,-21.989239489863138,-47.88159799112135,praca_bandeira.jpg,Sul
33,https://drive.google.com/uc?export=download&id=1AcWViVob-CSmeUcTI3jFAJ4yTNp7XdYo,-21.987181408336394,-47.88015898599538,quadras.jpg,Sul
34,https://drive.google.com/uc?export=download&id=1E8z6WwVJxDZxuMuV7HNZXAMwwGDBq_VD,-21.989682719526296,-47.88267283419841,sino.jpg,Sul
35,https://drive.google.com/uc?export=download&id=1v6MeRggKIjKsbEze2pktsIVjSR9CwSXp,-21.989064678357945,-47.88225172737648,subida_sul.jpg,Sul
36,https://drive.google.com/uc?export=download&id=1rg0Owgg8jf2hk6elxlwLvvF69XV102jw,-21.98250925518593,-47.87976367761458,atcinco.jpg,Centro
37,https://drive.google.com/uc?export=download&id=1CChmhHiOKsRweikoK5XqbhihmiV-X3te,-21.98218343062905,-47.87869347621151,atsete.jpg,Centro
38,https://drive.google.com/uc?export=download&id=1NTyh79MamILRyidIVSvjwc2zV0nCblHo,-21.983371954544335,-47.88251062764416,bco.jpg,Centro
39,https://drive.google.com/uc?export=download&id=1TZYtWBEVWs07b89b-uPHAVauuR04YuDX,-21.983378172524905,-47.882866020340934,bco1.jpg,Centro
40,https://drive.google.com/uc?export=download&id=1qfqsDZ6pF8gij1DOJI3DgC13ZDaHHUC6,-21.983370710948023,-47.882899547954004,bco2.jpg,Centro
41,https://drive.google.com/uc?export=download&id=1FXVzZY68KVm44HjW2l-zX6YbLILRjiVY,-21.983381903312942,-47.88303902282113,bco3.jpg,Centro
42,https://drive.google.com/uc?export=download&id=1WVHpK46v8cNqKzxpaiWYzcCfWpOhQc8p,-21.98251511417839,-47.879772092243826,bio.jpg,Centro
43,https://drive.google.com/uc?export=download&id=1pYFLQTnh7z47m7tEZhdJkoBqJNScNBG2,-21.983877371576426,-47.88210956795591,descida_ru.jpg,Centro
44,https://drive.google.com/uc?export=download&id=1CGHHnwfy2wOwVrTMNvUCb5pZM7tagVTS,-21.98424547426656,-47.88219808085089,escadaria_ru.jpg,Centro
45,https://drive.google.com/uc?export=download&id=13KQr31g9zGyqArg5xjvqJJacxf2gm_n1,-21.982524959082102,-47.88121572179806,ludogs.jpg,Centro
46,https://drive.google.com/uc?export=download&id=1SPplxNSY49H4EHfr6RzBOTGz_LuDTwYM,-21.98256037174446,-47.88057224537512,ponto_dema.jpg,Centro
47,https://drive.google.com/uc?export=download&id=1GyEGVPJmrjHcRISSxatkvGzpJPEB-E2T,-21.985235890480716,-47.8823490193616,ru_bancos.jpg,Centro
48,https://drive.google.com/uc?export=download&id=15J3gnZoWIdjSf5Frf3MD36zHddgIf5og,-21.984727265408136,-47.88223904879088,ru.jpg,Centro
